City_ID,City,Lat,Lng,Max Temp,Humidity,Cloudiness,Wind Speed,Country,Date
0,port mathurin,-19.6833,63.4167,26.17,80,89,4.2,MU,1701786409
1,punta arenas,-53.15,-70.9167,8.06,39,40,10.29,CL,1701786549
2,puerto natales,-51.7236,-72.4875,10.25,46,20,8.75,CL,1701786549
3,port-aux-francais,-49.35,70.2167,4.12,77,97,7.28,TF,1701786549
4,choibalsan,48.0667,114.5,-12.94,63,97,8.67,MN,1701786549
5,yellowknife,62.456,-114.3525,-9.71,92,100,7.2,CA,1701786549
6,kapa'a,22.0752,-159.319,24.18,85,75,7.2,US,1701786550
7,haiku-pauwela,20.9219,-156.3051,22.25,91,0,6.69,US,1701786550
8,nieuw amsterdam,5.8833,-55.0833,28.97,81,40,3.09,SR,1701786550
9,bethel,41.3712,-73.414,4.55,64,0,2.24,US,1701786551
10,isafjordur,66.0755,-23.124,0.02,86,75,1.03,IS,1701786551
11,aasiaat,68.7098,-52.8699,-17.65,99,92,2.92,GL,1701786551
12,smithers,54.7804,-127.1743,3.18,87,75,3.6,CA,1701786551
13,waitangi,-43.9535,-176.5597,10.46,79,92,0.45,NZ,1701786552
14,praia da vitoria,38.7333,-27.0667,19.14,88,40,11.13,PT,1701786326
15,jalqani,12.4486,34.2186,36.1,17,26,3.52,SD,1701786552
16,kangding,30.0513,101.9603,5.51,82,99,1.5,CN,1701786552
17,grytviken,-54.2811,-36.5092,2.94,66,53,5.16,GS,1701786312
18,iskateley,67.6803,53.1512,-26.1,93,5,4.02,RU,1701786552
19,geraldton,-28.7667,114.6,21.23,78,100,8.23,AU,1701786552
20,arraial do cabo,-22.9661,-42.0278,29.98,74,75,3.09,BR,1701786553
21,lagoa,39.05,-27.9833,18.1,85,100,14.35,PT,1701786553
22,urangan,-25.3,152.9,23.55,79,13,3.27,AU,1701786553
23,rikaze,29.25,88.8833,1.08,31,1,1.06,CN,1701786553
24,adamstown,-25.066,-130.1015,22.4,80,100,5.51,PN,1701786553
25,margaret river,-33.95,115.0667,14.6,80,15,5.35,AU,1701786554
26,lihue,21.9789,-159.3672,23.77,83,75,7.2,US,1701786408
27,namie,37.4833,141.0,7.62,83,100,2.56,JP,1701786554
28,xalisco,21.4531,-104.8993,15.47,94,75,3.09,MX,1701786554
29,tolanaro,-25.0319,46.9987,27.04,74,20,9.77,MG,1701786554
30,longyearbyen,78.2186,15.6401,-4.09,63,75,6.69,SJ,1701786258
31,coquimbo,-29.9533,-71.3436,14.85,82,100,3.09,CL,1701786554
32,new norfolk,-42.7826,147.0587,14.95,69,24,4.39,AU,1701786555
33,port isabel,26.0734,-97.2086,20.01,91,20,3.09,US,1701786555
34,fort st. john,56.2499,-120.8529,-0.06,93,20,4.12,CA,1701786555
35,atafu village,-8.5421,-172.5159,28.74,75,100,4.74,TK,1701786555
36,gumdag,39.2061,54.5906,15.78,60,15,6.98,TM,1701786555
37,kill devil hills,36.0307,-75.676,12.77,68,0,4.63,US,1701786556
38,talnakh,69.4865,88.3972,-32.85,84,22,2.73,RU,1701786556
39,benghazi,32.1167,20.0667,18.62,53,83,4.84,LY,1701786413
40,sinop,41.7711,34.8709,8.24,89,99,2.92,TR,1701786556
41,nadym,65.5333,72.5167,-39.59,100,41,2.17,RU,1701786448
42,blackmans bay,-43.0167,147.3167,14.29,57,18,0.45,AU,1701786556
43,bilibino,68.0546,166.4372,-28.03,99,100,1.4,RU,1701786386
44,pangody,65.85,74.4859,-39.69,100,35,1.83,RU,1701786557
45,camacupa,-12.0167,17.4833,24.2,65,87,2.34,AO,1701786557
46,bathsheba,13.2167,-59.5167,29.34,79,40,9.26,BB,1701786557
47,badger,64.8,-147.5333,-18.44,75,40,1.54,US,1701786557
48,meerbusch,51.2833,6.6667,7.34,97,75,4.92,DE,1701786402
49,keflavik,64.0049,-22.5624,3.24,70,40,8.23,IS,1701786557
50,sinabang,2.4803,96.3801,27.25,77,95,1.08,ID,1701786557
51,port elizabeth,-33.918,25.5701,18.94,76,100,4.63,ZA,1701786390
52,mirnyy,62.5353,113.9611,-47.2,100,58,1.22,RU,1701786558
53,queenstown,-31.8976,26.8753,23.35,36,0,9.75,ZA,1701786558
54,ilulissat,69.2167,-51.1,-10.99,73,0,1.03,GL,1701786558
55,colonia,50.9333,6.95,7.2,88,100,3.6,DE,1701786489
56,qaqortoq,60.7167,-46.0333,-5.91,68,96,4.76,GL,1701786558
57,bredasdorp,-34.5322,20.0403,20.58,54,91,7.06,ZA,1701786558
58,lompoc,34.6391,-120.4579,11.99,73,0,5.66,US,1701786559
59,dudinka,69.4058,86.1778,-32.96,95,73,2.68,RU,1701786559
60,andergrove,-21.0833,149.1833,25.36,81,17,5.48,AU,1701786559
61,long,18.0761,99.8326,24.08,85,97,0.81,TH,1701786559
62,ishikawa,26.4233,127.8214,20.98,69,93,5.76,JP,1701786560
63,east london,-33.0153,27.9116,17.52,94,100,2.57,ZA,1701786560
64,altai,46.3722,96.2583,-10.78,49,21,3.62,MN,1701786490
65,villa gesell,-37.2639,-56.973,20.03,60,92,6.35,AR,1701786419
66,edinburgh of the seven seas,-37.0676,-12.3116,15.58,97,100,6.34,SH,1701786560
67,anadyr,64.75,177.4833,-21.72,77,0,6.0,RU,1701786561
68,invercargill,-46.4,168.35,7.12,90,65,1.05,NZ,1701786561
69,voru,57.8339,27.0194,-15.09,99,65,0.83,EE,1701786561
70,albany,42.6001,-73.9662,2.02,83,23,1.34,US,1701786443
71,hermanus,-34.4187,19.2345,20.87,59,14,9.66,ZA,1701786561
72,hamilton,39.1834,-84.5333,3.75,94,100,3.09,US,1701786286
73,arkhangel'sk,64.5401,40.5433,-25.94,76,20,0.0,RU,1701786562
74,sao felix do xingu,-6.6447,-51.995,31.46,52,66,0.75,BR,1701786562
75,olonkinbyen,70.9221,-8.7187,-1.91,73,76,5.07,SJ,1701786563
76,kabalo,-6.05,26.9167,23.8,87,100,2.55,CD,1701786563
77,saint-francois,46.4154,3.9054,7.69,68,75,6.17,FR,1701786563
78,alice springs,-23.7,133.8833,23.75,46,0,0.0,AU,1701786564
79,san patricio,28.017,-97.5169,15.47,80,100,2.67,US,1701786564
80,taro,-8.3862,115.28,23.0,93,82,0.5,ID,1701786564
81,bedele,8.456,36.353,19.09,73,100,0.79,ET,1701786564
82,al jawf,29.5,38.75,24.75,24,2,6.13,SA,1701786565
83,novyy urgal,51.0736,132.5642,-15.48,96,91,0.87,RU,1701786565
84,fort wellington,6.4,-57.6,28.11,74,40,4.0,GY,1701786565
85,enewetak,11.3474,162.3373,28.11,68,91,8.2,MH,1701786565
86,tazovsky,67.4667,78.7,-33.11,99,94,1.23,RU,1701786565
87,ghadamis,30.1337,9.5007,20.43,32,100,4.06,LY,1701786566
88,yurimaguas,-5.9,-76.0833,25.09,83,75,3.6,PE,1701786566
89,mount pearl,47.5166,-52.7813,1.19,87,75,3.09,CA,1701786566
90,armacao de buzios,-22.7469,-41.8817,30.09,79,87,2.98,BR,1701786566
91,tinogasta,-28.0632,-67.5649,22.41,44,0,2.73,AR,1701786566
92,taltal,-25.4,-70.4833,19.44,66,2,2.83,CL,1701786566
93,galliano,29.4422,-90.2992,15.0,72,0,2.06,US,1701786567
94,beneditinos,-5.45,-42.3667,37.55,32,53,1.62,BR,1701786567
95,kita,13.0349,-9.4895,36.28,10,0,1.96,ML,1701786567
96,college,64.8569,-147.8028,-18.39,79,75,1.54,US,1701786407
97,ushuaia,-54.8,-68.3,3.81,75,75,12.86,AR,1701786567
98,tocopilla,-22.092,-70.1979,20.84,69,78,3.94,CL,1701786567
99,tanjung pandan,-2.75,107.65,26.57,80,100,0.99,ID,1701786568
100,conception bay south,47.4999,-52.9981,1.52,88,100,4.28,CA,1701786568
101,hawaiian paradise park,19.5933,-154.9731,21.73,95,100,0.0,US,1701786390
102,juneau,58.3019,-134.4197,6.0,95,100,10.8,US,1701786568
103,hihya,30.6713,31.588,25.25,29,0,2.41,EG,1701786568
104,cascais,38.6979,-9.4215,11.39,87,20,5.81,PT,1701786316
105,monteagudo,-19.8167,-63.9833,17.93,93,100,1.25,BO,1701786569
106,bramming,55.4695,8.7001,1.2,82,75,6.69,DK,1701786569
107,nova sintra,14.8667,-24.7167,22.13,74,100,9.52,CV,1701786569
108,st. john's,47.5649,-52.7093,1.65,87,75,4.47,CA,1701786431
109,kodiak,57.79,-152.4072,0.73,93,100,8.23,US,1701786569
110,zapolyarnyy,69.4154,30.8136,-10.4,98,99,2.59,RU,1701786570
111,remire-montjoly,4.9167,-52.2667,29.02,84,75,2.57,GF,1701786570
112,manakara,-22.1333,48.0167,26.43,67,5,4.74,MG,1701786570
113,mount gambier,-37.8333,140.7667,10.75,96,39,1.61,AU,1701786570
114,tofol,5.3248,163.0078,28.14,78,39,8.28,FM,1701786570
115,hobyo,5.3505,48.5268,27.54,63,12,8.75,SO,1701786570
116,labytnangi,66.6572,66.4183,-33.98,98,24,1.74,RU,1701786570
117,uturoa,-16.7333,-151.4333,26.87,78,100,7.07,PF,1701786571
118,acapulco de juarez,16.8634,-99.8901,25.9,73,75,2.06,MX,1701786571
119,hirado,33.3597,129.5531,14.41,63,66,1.85,JP,1701786571
120,ust-nera,64.5667,143.2,-46.71,98,96,2.71,RU,1701786571
121,saipan,15.1355,145.701,27.39,78,20,6.17,MP,1701786572
122,puerto deseado,-47.7503,-65.8938,16.34,53,97,13.99,AR,1701786572
123,puerto madero,14.7208,-92.4215,26.11,100,0,0.0,MX,1701786572
124,whitehorse,60.7161,-135.0538,-2.57,86,75,7.2,CA,1701786572
125,chibougamau,49.9168,-74.3659,-23.21,84,20,2.57,CA,1701786572
126,monrovia,6.3005,-10.7969,32.87,68,16,3.2,LR,1701786572
127,fort bragg,35.139,-79.006,11.01,71,0,2.06,US,1701786572
128,kingston,17.997,-76.7936,29.58,73,20,1.34,JM,1701786376
129,vila velha,-20.3297,-40.2925,32.97,70,20,7.2,BR,1701786573
130,beau vallon,-20.4189,57.6953,26.23,73,75,3.6,MU,1701786573
131,ribeira grande,38.5167,-28.7,19.87,88,40,10.29,PT,1701786573
132,nova vicosa,-17.8919,-39.3719,30.13,59,9,5.63,BR,1701786573
133,kovalam,8.3667,76.9967,30.05,74,40,1.54,IN,1701786573
134,west island,-12.1568,96.8225,26.99,74,14,4.63,CC,1701786574
135,kupiskis,55.8333,24.9667,-8.47,98,88,1.49,LT,1701786574
136,arar,30.9753,41.0381,25.01,18,0,5.66,SA,1701786574
137,chachersk,52.9164,30.9179,-3.05,99,65,1.81,BY,1701786574
138,iqaluit,63.7506,-68.5145,-11.15,79,75,3.6,CA,1701786574
139,kheralu,23.8833,72.6167,21.77,50,0,2.69,IN,1701786574
140,auterive,43.351,1.478,10.76,65,50,6.6,FR,1701786574
141,tura,25.5198,90.2201,19.0,67,99,1.02,IN,1701786575
142,jayapura,-2.5333,140.7,25.66,90,94,0.85,ID,1701786575
143,hammerfest,70.6634,23.6821,-5.75,68,40,7.72,NO,1701786575
144,sao vicente,-23.9631,-46.3919,31.1,57,100,1.54,BR,1701786575
145,carnarvon,-24.8667,113.6333,24.23,75,27,11.75,AU,1701786575
146,rudnya,54.947,31.0934,-11.75,99,93,1.1,RU,1701786576
147,pacific grove,36.6177,-121.9166,15.28,66,0,3.09,US,1701786576
148,thompson,55.7435,-97.8558,-6.91,93,100,4.63,CA,1701786576
149,comodoro rivadavia,-45.8667,-67.5,26.92,22,0,7.72,AR,1701786576
150,souillac,-20.5167,57.5167,26.21,73,75,3.6,MU,1701786576
151,klaksvik,62.2266,-6.589,-0.49,66,26,3.6,FO,1701786576
152,lorengau,-2.0226,147.2712,27.16,81,34,2.4,PG,1701786576
153,joaima,-16.6542,-41.0306,34.41,40,18,2.59,BR,1701786576
154,tiksi,71.6872,128.8694,-18.93,97,100,4.09,RU,1701786487
155,kerikeri,-35.2268,173.9474,14.39,93,54,1.77,NZ,1701786577
156,gadzhiyevo,69.2551,33.3362,-9.21,84,100,4.82,RU,1701786577
157,port alfred,-33.5906,26.891,18.43,83,100,1.34,ZA,1701786577
158,la ronge,55.1001,-105.2842,-14.86,85,75,1.54,CA,1701786577
159,togur,58.3631,82.8265,-19.92,94,100,4.02,RU,1701786577
160,simanggang,1.2472,111.4528,25.99,94,98,0.0,MY,1701786577
161,flin flon,54.7682,-101.865,-9.09,92,100,2.57,CA,1701786578
162,arish,31.1316,33.7984,21.31,73,99,3.35,EG,1701786578
163,jamestown,42.097,-79.2353,1.97,97,100,1.54,US,1701786394
164,qamdo,31.1667,97.2333,-7.32,72,100,1.76,CN,1701786578
165,thinadhoo,0.5333,72.9333,28.07,77,18,4.41,MV,1701786578
166,lebu,-37.6167,-73.65,15.01,75,85,3.86,CL,1701786385
167,galesong,-5.3166,119.3661,26.01,79,100,2.78,ID,1701786578
168,richards bay,-28.783,32.0377,23.02,70,100,4.85,ZA,1701786579
169,basco,20.4487,121.9702,25.83,84,78,6.23,PH,1701786579
170,broome,42.2506,-75.833,2.16,81,100,2.06,US,1701786579
171,kongolo,-5.3833,27.0,22.0,95,100,1.05,CD,1701786579
172,cha-am,12.8,99.9667,26.44,82,52,1.51,TH,1701786579
173,siemiatycze,52.4272,22.8623,-5.61,91,49,4.44,PL,1701786579
174,vorgashor,67.5833,63.95,-30.17,97,28,1.54,RU,1701786419
175,astrakhan,46.3497,48.0408,-0.05,74,75,5.0,RU,1701786580
176,anton lizardo,19.05,-95.9833,23.45,89,100,8.01,MX,1701786580
177,howrah,22.5892,88.3103,24.0,69,75,1.54,IN,1701786580
178,stanley,54.868,-1.6985,4.88,85,75,3.09,GB,1701786319
179,papatowai,-46.5619,169.4708,8.98,87,100,0.83,NZ,1701786580
180,ust-tsilma,65.441,52.1498,-26.88,100,95,0.89,RU,1701786580
181,chonchi,-42.6128,-73.8092,15.56,68,44,2.44,CL,1701786581
182,tralee,52.2704,-9.7026,5.14,81,0,1.54,IE,1701786581
183,petropavlovsk-kamchatsky,53.0452,158.6483,-2.67,79,75,5.36,RU,1701786482
184,hun,29.1268,15.9477,20.17,27,58,1.86,LY,1701786581
185,nueve de julio,-35.4444,-60.8831,19.42,65,98,3.13,AR,1701786582
186,miringa,10.7312,12.1463,32.78,11,38,4.17,NG,1701786582
187,mejit,10.2753,170.8646,27.63,80,47,9.99,MH,1701786582
188,zavitinsk,50.1167,129.45,-6.45,94,100,8.47,RU,1701786582
189,callao,-12.0667,-77.15,21.16,78,75,3.09,PE,1701786582
190,urucara,-2.5364,-57.76,30.36,61,80,2.33,BR,1701786582
191,newman,37.3138,-121.0208,6.27,90,10,0.77,US,1701786434
192,saint-philippe,-21.3585,55.7679,26.77,76,49,3.49,RE,1701786582
193,anderson,34.5334,-82.6499,9.31,81,0,0.0,US,1701786426
194,wailua homesteads,22.0669,-159.378,23.44,87,75,7.2,US,1701786583
195,morganton,35.7454,-81.6848,8.37,84,0,0.89,US,1701786583
196,mao,39.8885,4.2658,13.31,71,40,3.6,ES,1701786583
197,bodden town,19.2833,-81.25,29.43,77,20,3.6,KY,1701786583
198,happy valley-goose bay,53.3168,-60.3315,-11.83,72,75,6.69,CA,1701786469
199,raton,36.9034,-104.4391,-2.81,79,0,1.54,US,1701786583
200,gulf shores,30.246,-87.7008,10.56,76,0,1.54,US,1701786583
201,zhezqazghan,47.7833,67.7667,3.32,93,20,5.0,KZ,1701786584
202,sur,22.5667,59.5289,25.4,47,0,6.02,OM,1701786584
203,eastbourne,50.7687,0.2845,6.77,92,100,1.34,GB,1701786485
204,jinxiang,27.4327,120.6062,13.84,76,0,1.77,CN,1701786584
205,daru,-9.0763,143.2092,27.0,75,44,4.98,PG,1701786584
206,ryotsu-minato,38.0833,138.4333,10.77,56,100,1.1,JP,1701786584
207,palangkaraya,-2.2,113.8333,24.63,93,98,1.23,ID,1701786585
208,avarua,-21.2078,-159.775,24.03,88,40,5.14,CK,1701786585
209,choma,-16.8065,26.9531,34.65,16,14,2.29,ZM,1701786585
210,amasra,41.7463,32.3863,12.03,88,3,3.24,TR,1701786585
211,chokwe,-24.5333,32.9833,33.09,36,0,7.63,MZ,1701786585
212,fortuna,40.5982,-124.1573,15.37,93,75,3.58,US,1701786585
213,port lincoln,-34.7333,135.8667,16.81,80,41,5.15,AU,1701786370
214,kalmunai,7.4167,81.8167,27.49,82,99,0.74,LK,1701786586
215,sao gabriel da cachoeira,-0.1303,-67.0892,29.89,74,20,0.51,BR,1701786586
216,ruidoso,33.3317,-105.673,5.87,44,0,2.57,US,1701786586
217,larkfield,51.2946,0.4262,7.45,70,100,3.13,GB,1701786586
218,wenchang,30.904,118.4887,12.92,51,100,1.71,CN,1701786586
219,georgetown,5.4112,100.3354,25.96,97,40,2.57,MY,1701786355
220,dakoro,14.5106,6.765,33.48,8,62,4.91,NE,1701786586
221,gornopravdinsk,60.05,69.9,-18.09,91,100,4.0,RU,1701786587
222,kudahuvadhoo,2.6708,72.8944,28.09,80,43,6.67,MV,1701786587
223,novi pazar,43.1367,20.5122,5.84,73,100,1.63,RS,1701786587
224,svetlyy,54.675,20.1347,-1.69,90,8,4.07,RU,1701786587
225,walvis bay,-22.9575,14.5053,18.94,65,13,6.21,NA,1701786587
226,holualoa,19.6228,-155.9522,20.99,75,0,1.54,US,1701786587
227,yarmouth,41.7057,-70.2286,5.05,73,100,9.39,US,1701786588
228,genhe,50.7833,121.5167,-10.19,93,99,4.15,CN,1701786588
229,shimoda,34.6667,138.95,9.5,69,100,4.11,JP,1701786588
230,santo antonio,-6.3106,-35.4789,33.32,41,88,6.34,BR,1701786588
231,howard springs,-12.497,131.047,25.95,94,100,0.79,AU,1701786588
232,guiuan,11.0333,125.7247,27.73,82,84,5.07,PH,1701786588
233,homer,59.6425,-151.5483,1.93,70,100,1.54,US,1701786589
234,rongelap,11.1635,166.8941,27.68,77,62,8.93,MH,1701786589
235,charef,34.621,2.795,12.47,63,100,3.72,DZ,1701786589
236,codrington,-38.2667,141.9667,12.12,90,35,2.81,AU,1701786589
237,dunedin,-45.8742,170.5036,12.11,82,100,2.68,NZ,1701786589
238,mitchell,43.7094,-98.0298,-4.59,93,0,2.57,US,1701786589
239,alofi,-19.0595,-169.9187,23.94,88,40,1.54,NU,1701786589
240,severnoye,56.3491,78.3619,-11.68,95,100,5.36,RU,1701786590
241,kenai,60.5544,-151.2583,-0.48,84,100,1.54,US,1701786590
242,bontang,0.1333,117.5,27.05,84,19,1.83,ID,1701786590
243,priob'ye,62.5206,65.5964,-20.54,92,100,3.64,RU,1701786590
244,klyuchi,52.2667,79.1667,2.24,95,100,6.81,RU,1701786366
245,beichengqu,40.4394,113.1536,-2.35,42,34,7.54,CN,1701786590
246,okhotsk,59.3833,143.3,-29.28,79,100,7.22,RU,1701786590
247,yuzhno-kurilsk,44.0306,145.8556,4.1,91,24,1.18,RU,1701786591
248,igarka,67.4667,86.5833,-41.0,98,55,1.26,RU,1701786591
249,meadow lake,34.8014,-106.5436,2.9,75,0,1.64,US,1701786591
250,minas de marcona,-15.2119,-75.1103,18.31,64,100,5.1,PE,1701786591
251,santa terezinha,-29.9002,-50.0904,19.91,87,100,6.72,BR,1701786591
252,uaua,-9.8414,-39.4817,33.5,36,69,3.64,BR,1701786592
253,salinas,36.6777,-121.6555,15.51,66,0,3.09,US,1701786554
254,boise,43.6135,-116.2035,7.66,88,79,2.87,US,1701786444
255,afaahiti,-17.75,-149.2833,24.93,84,100,7.0,PF,1701786592
256,metlili chaamba,32.2667,3.6333,19.52,19,0,3.09,DZ,1701786592
257,bosansko grahovo,44.1794,16.3639,3.37,97,100,3.54,BA,1701786592
258,peace river,56.2501,-117.286,2.03,91,40,4.12,CA,1701786592
259,pachino,36.7186,15.0907,15.17,74,76,9.07,IT,1701786592
260,nagqu,31.5,92.0,-10.94,57,100,2.85,CN,1701786593
261,jinghong,21.991,100.7341,18.92,98,100,1.19,CN,1701786593
262,gouyave,12.1646,-61.7296,29.43,74,20,6.17,GD,1701786593
263,ingeniero jacobacci,-41.3427,-69.5448,21.86,29,9,6.73,AR,1701786593
264,martapura,-3.4167,114.85,27.05,89,20,2.06,ID,1701786593
265,saliste,45.7963,23.8868,1.56,69,20,0.0,RO,1701786593
266,tan-tan,28.438,-11.1032,20.97,68,100,6.17,MA,1701786593
267,khandyga,62.6667,135.6,-51.37,100,42,0.83,RU,1701786594
268,markala,13.7021,-6.0659,34.54,10,0,2.33,ML,1701786594
269,constantia,44.1833,28.65,6.5,73,100,4.76,RO,1701786502
270,hays,30.0502,-98.0336,12.67,52,0,0.92,US,1701786594
271,tuzlukcu,38.4778,31.6264,12.46,61,2,2.01,TR,1701786594
272,letovice,49.5471,16.5736,-0.62,79,100,2.71,CZ,1701786594
273,irymple,-34.25,142.1667,23.38,39,49,7.63,AU,1701786594
274,nikolayevsk-on-amure,53.1406,140.73,-10.86,92,100,1.86,RU,1701786595
275,vernon,50.2581,-119.2691,4.23,92,100,1.54,CA,1701786595
276,as sulayyil,20.4607,45.5779,24.14,16,0,3.1,SA,1701786595
277,kirakira,-10.4544,161.9205,25.64,93,100,5.53,SB,1701786595
278,puerto ayora,-0.7393,-90.3518,25.98,94,93,3.13,EC,1701786500
279,kapuskasing,49.4169,-82.4331,-7.95,86,100,1.03,CA,1701786595
280,udachny,66.4167,112.4,-31.93,97,100,2.23,RU,1701786595
281,tual,-5.6667,132.75,29.13,70,94,2.17,ID,1701786595
282,santiago de cao,-7.9589,-79.2392,20.07,83,75,4.63,PE,1701786596
283,grand falls-windsor,48.9332,-55.6649,-0.28,88,100,2.3,CA,1701786326
284,ancud,-41.8697,-73.8203,14.33,73,1,2.21,CL,1701786596
285,naze,28.3667,129.4833,16.51,66,95,6.0,JP,1701786596
286,noumea,-22.2763,166.4572,21.99,83,65,3.78,NC,1701786596
287,christchurch,-43.5333,172.6333,14.39,84,100,4.63,NZ,1701786436
288,itoman,26.1247,127.6694,21.01,73,40,2.57,JP,1701786596
289,viedma,-40.8135,-62.9967,24.48,26,10,8.61,AR,1701786596
290,aykhal,66.0,111.5,-31.24,97,100,3.01,RU,1701786597
291,fale old settlement,-9.3852,-171.2468,28.37,78,98,5.45,TK,1701786597
292,ambodifotatra,-16.9833,49.85,26.36,74,0,4.97,MG,1701786597
293,ketchikan,55.3422,-131.6461,9.26,87,100,9.26,US,1701786597
294,tadine,-21.55,167.8833,22.88,78,100,4.35,NC,1701786597
295,crane,31.3974,-102.3501,10.25,39,3,1.62,US,1701786597
296,ola,59.5833,151.2833,-27.51,90,62,3.89,RU,1701786597
297,rumbek,6.802,29.6912,33.67,35,70,2.49,SS,1701786597
298,chichiriviche,10.9333,-68.2772,27.06,82,21,6.39,VE,1701786598
299,qarazhal,48.0078,70.7903,4.2,65,100,6.88,KZ,1701786598
300,bratsk,56.1325,101.6142,-27.73,92,93,1.47,RU,1701786598
301,westende,51.1588,2.7683,6.97,90,75,3.09,BE,1701786598
302,akureyri,65.6835,-18.0878,-14.04,85,0,2.06,IS,1701786598
303,coahuayana de hidalgo,18.7,-103.6583,24.58,57,100,2.71,MX,1701786598
304,muroto-misakicho,33.2833,134.15,13.47,84,100,3.94,JP,1701786598
305,pocatello,42.8713,-112.4455,4.26,89,0,6.26,US,1701786598
306,bambari,5.768,20.6757,33.69,30,40,2.07,CF,1701786599
307,amga,60.8953,131.9608,-45.24,99,91,1.3,RU,1701786599
308,port antonio,18.18,-76.4612,30.55,74,11,3.61,JM,1701786599
309,pisco,-13.7,-76.2167,21.68,78,20,3.09,PE,1701786599
310,ekuvukeni,-28.4675,30.1551,18.92,91,87,4.68,ZA,1701786599
311,labrador city,52.9463,-66.9114,-21.05,84,75,2.06,CA,1701786599
312,upington,-28.4478,21.2561,36.21,6,0,3.09,ZA,1701786599
313,essaouira,31.5125,-9.77,19.72,82,75,5.14,MA,1701786599
314,iyidere,41.0119,40.3619,13.98,92,100,2.1,TR,1701786600
315,iyo,33.7514,132.7014,11.15,95,88,1.75,JP,1701786600
316,patiali,27.7167,79.0167,20.13,43,0,2.81,IN,1701786601
317,jining,35.405,116.5814,9.69,38,85,3.12,CN,1701786601
318,lubao,14.9167,120.55,28.04,85,45,1.25,PH,1701786603
319,sola,-13.8833,167.55,27.19,76,99,4.05,VU,1701786604
320,acarau,-2.8856,-40.12,32.12,57,20,8.46,BR,1701786605
321,ploneour-lanvern,47.9,-4.2833,11.18,62,75,7.2,FR,1701786606
322,badr hunayn,23.7829,38.7905,27.57,59,0,3.29,SA,1701786606
323,hithadhoo,-0.6,73.0833,28.23,73,24,2.41,MV,1701786404
324,mthatha,-31.5889,28.7844,15.31,94,100,2.57,ZA,1701786610
325,tarija,-21.5355,-64.7296,21.95,64,40,0.0,BO,1701786612
326,muranovo,56.1833,37.9,-10.25,100,80,1.53,RU,1701786612
327,huarmey,-10.0681,-78.1522,22.2,76,78,4.73,PE,1701786612
328,ust'-barguzin,53.45,108.9833,-15.01,87,100,4.81,RU,1701786613
329,horta,38.5333,-28.6333,19.45,88,40,10.29,PT,1701786613
330,quellon,-43.1167,-73.6167,14.55,75,67,3.41,CL,1701786613
331,saudarkrokur,65.7461,-19.6394,-3.64,72,31,2.73,IS,1701786614
332,imbituba,-28.24,-48.6703,23.81,94,100,3.1,BR,1701786615
333,san antonio de pale,-1.4014,5.6325,26.24,82,87,5.53,GQ,1701786615
334,karratha,-20.7377,116.8463,28.01,65,4,5.95,AU,1701786436
335,zalingei,12.9096,23.4741,31.24,11,85,4.06,SD,1701786615
336,kelo,9.3086,15.8066,35.89,16,13,2.38,TD,1701786616
337,balaipungut,1.05,101.2833,24.46,97,100,1.53,ID,1701786616
338,rexburg,43.826,-111.7897,2.52,89,100,2.06,US,1701786616
339,cockburn town,21.4612,-71.1419,27.3,77,15,6.72,TC,1701786616
340,harper,4.375,-7.7169,28.69,71,30,2.91,LR,1701786617
341,trairi,-3.2778,-39.2689,31.45,58,54,6.3,BR,1701786380
342,susuman,62.7833,148.1667,-46.12,100,100,0.89,RU,1701786617
343,price,39.5994,-110.8107,-2.41,80,0,2.57,US,1701786617
344,pazaryeri,39.994,29.9042,8.29,86,57,1.28,TR,1701786617
345,kharan,28.5833,65.4167,15.9,21,10,1.15,PK,1701786618
346,stornoway,58.2093,-6.3865,2.98,91,20,0.51,GB,1701786618
347,chandur,19.7333,79.1833,19.54,89,100,3.44,IN,1701786618
348,dieppe,49.75,1.1667,7.33,93,100,0.45,FR,1701786618
349,hanceville,34.0607,-86.7675,7.34,71,0,2.32,US,1701786619
350,ta`u,-14.2336,-169.5144,27.15,80,97,9.51,AS,1701786619
351,yessentuki,44.0444,42.8606,4.86,90,100,1.34,RU,1701786620
352,visakhapatnam,17.69,83.2093,23.94,100,100,5.14,IN,1701786620
353,puerto aysen,-45.4,-72.7,13.51,95,100,1.77,CL,1701786621
354,potsdam,52.3989,13.0657,0.56,82,100,4.17,DE,1701786621
355,naxos,37.1056,25.3764,18.5,76,78,4.02,GR,1701786621
356,severo-yeniseyskiy,60.3725,93.0408,-38.57,100,31,1.34,RU,1701786354
357,utrik,11.2278,169.8474,27.48,79,16,9.96,MH,1701786622
358,roswell,34.0232,-84.3616,8.05,85,0,3.09,US,1701786622
359,hami,42.8,93.45,0.51,48,2,2.33,CN,1701786623
360,kurchatov,51.6601,35.6521,-4.77,99,72,1.74,RU,1701786623
361,lazaro cardenas,17.9583,-102.2,25.47,61,100,3.38,MX,1701786624
362,kannapolis,35.4874,-80.6217,9.16,80,0,0.45,US,1701786624
363,touros,-5.1989,-35.4608,30.22,62,56,6.88,BR,1701786624
364,luau,-10.7073,22.2247,23.29,81,100,1.98,AO,1701786625
365,tabas,33.5959,56.9244,16.12,21,0,1.03,IR,1701786625
366,caqueza,4.4057,-73.9468,21.81,59,78,2.49,CO,1701786626
367,gebeit,21.0667,36.3167,28.06,37,22,5.1,SD,1701786626
368,stowmarket,52.1889,0.9977,6.82,82,75,4.63,GB,1701786627
369,sisimiut,66.9395,-53.6735,-9.64,82,20,4.8,GL,1701786627
370,minab,27.1467,57.0801,25.06,49,0,1.99,IR,1701786627
371,erdenet,49.0333,104.0833,-16.7,81,91,1.78,MN,1701786627
372,bir el ater,34.7449,8.0602,12.44,49,70,3.78,DZ,1701786628
373,xiaoweizhai,26.1903,107.5125,11.87,92,100,1.52,CN,1701786628
374,bengkulu,-3.8004,102.2655,25.17,92,99,2.0,ID,1701786414
375,nar'yan-mar,67.6713,53.087,-26.05,93,5,4.02,RU,1701786629
376,cozumel,20.5083,-86.9458,28.3,84,40,3.13,MX,1701786629
377,pavlodar,52.3,76.95,2.89,87,100,7.0,KZ,1701786629
378,angaur state,6.906,134.13,28.28,79,50,3.84,PW,1701786630
379,spinazzola,40.9671,16.0916,10.46,67,100,3.57,IT,1701786630
380,sao jose da coroa grande,-8.8978,-35.1478,29.71,58,37,4.49,BR,1701786631
381,arteche,12.2645,125.4048,25.96,89,86,2.75,PH,1701786632
382,gazojak,41.1875,61.4036,14.89,29,100,3.57,TM,1701786632
383,dem'yanovo,60.3511,47.0842,-13.17,93,100,1.89,RU,1701786633
384,eyl,7.9803,49.8164,26.57,59,64,10.98,SO,1701786634
385,diego de almagro,-26.3667,-70.05,25.41,18,0,3.94,CL,1701786636
386,vilyuchinsk,52.9306,158.4028,-1.85,82,21,4.67,RU,1701786636
387,nuuk,64.1835,-51.7216,-3.66,54,20,1.54,GL,1701786637
388,augusto correa,-1.0217,-46.635,32.02,57,90,3.25,BR,1701786639
389,katsuura,35.1333,140.3,11.6,81,100,1.77,JP,1701786640
390,luderitz,-26.6481,15.1594,22.57,56,0,12.92,NA,1701786641
391,ulaangom,49.9811,92.0667,-11.81,88,100,1.57,MN,1701786591
392,nadi,-17.8,177.4167,26.0,73,40,2.57,FJ,1701786642
393,borogontsy,62.6683,131.1683,-49.75,100,56,1.37,RU,1701786644
394,sitka,57.0531,-135.33,7.94,76,100,7.2,US,1701786437
395,zyryanskoye,56.8306,86.6258,-15.09,96,100,4.63,RU,1701786646
396,antofagasta,-23.65,-70.4,19.6,62,26,3.66,CL,1701786582
397,mugia,43.1041,-9.2179,11.76,64,100,4.63,ES,1701786646
398,dryden,49.7833,-92.7503,-3.84,86,100,1.54,CA,1701786647
399,lionel town,17.8101,-77.2406,27.94,62,8,2.87,JM,1701786647
400,pahrump,36.2083,-115.9839,10.17,50,0,0.78,US,1701786556
401,corner brook,48.9667,-57.9484,-0.91,93,100,0.39,CA,1701786647
402,griffith,41.5284,-87.4237,1.96,94,100,2.06,US,1701786647
403,kulhudhuffushi,6.6221,73.07,28.82,69,91,3.74,MV,1701786647
404,hastings,50.8552,0.5729,6.86,59,100,7.19,GB,1701786647
405,zhosaly,45.4878,64.0781,9.88,49,100,5.37,KZ,1701786648
406,bandarbeyla,9.4942,50.8122,25.8,71,47,10.98,SO,1701786648
407,umba,66.6871,34.3429,-7.5,94,100,1.05,RU,1701786648
408,kampung sungai ara,5.327,100.2735,25.95,94,40,2.06,MY,1701786648
409,la plata,-34.9215,-57.9545,21.01,69,72,6.19,AR,1701786560
410,santa marta de ortigueira,43.6833,-7.85,11.25,76,100,2.28,ES,1701786648
411,trevelin,-43.0858,-71.4639,17.71,51,20,2.14,AR,1701786649
412,tarfaya,27.9358,-12.9218,20.05,71,99,0.96,MA,1701786649
413,bonthe,7.5264,-12.505,31.16,60,3,4.68,SL,1701786649
414,greymouth,-42.4667,171.2,10.36,91,61,1.12,NZ,1701786649
415,kuqa,41.7278,82.9364,2.04,48,0,1.03,CN,1701786649
416,edd,13.9297,41.6925,28.65,55,1,8.63,ER,1701786650
417,palmer,42.1584,-72.3287,3.41,65,75,5.66,US,1701786650
418,thunder bay,48.4001,-89.3168,-0.01,100,100,1.03,CA,1701786650
419,mozirje,46.3394,14.9633,4.23,89,100,0.67,SI,1701786650
420,catemaco,18.4167,-95.1167,21.55,96,100,2.78,MX,1701786650
421,selfoss,63.9331,-20.9971,-3.86,76,52,4.35,IS,1701786650
422,valdovino,43.6094,-8.1115,10.73,72,100,2.43,ES,1701786651
423,ceeldheer,3.8488,47.1806,27.33,66,32,8.03,SO,1701786607
424,black river,18.0264,-77.8487,28.08,59,0,0.3,JM,1701786651
425,altamont,42.2068,-121.7372,5.43,99,0,0.89,US,1701786651
426,kununurra,-15.7667,128.7333,27.99,78,63,0.0,AU,1701786651
427,juan jose rios,25.75,-108.8333,10.97,38,2,1.05,MX,1701786652
428,dauphin,51.1494,-100.0502,-13.92,92,0,0.0,CA,1701786652
429,gunsan,35.9786,126.7114,3.94,100,20,2.57,KR,1701786652
430,shingu,33.7333,135.9833,11.1,90,100,3.1,JP,1701786652
431,san lawrenz,36.0553,14.204,17.7,64,37,9.77,MT,1701786652
432,yashan,22.1975,109.9419,20.18,79,85,1.05,CN,1701786653
433,thief river falls,48.1191,-96.1812,-6.04,93,100,0.0,US,1701786653
434,tuy hoa,13.0833,109.3,23.98,92,36,1.55,VN,1701786653
435,miquelon,47.0975,-56.3814,1.0,94,100,4.48,PM,1701786653
436,belmonte,-15.8631,-38.8828,29.72,59,37,3.79,BR,1701786653
437,alaghsas,17.0187,8.0168,31.94,10,0,6.69,NE,1701786653
438,castillos,-34.1667,-53.8333,21.05,57,12,6.72,UY,1701786654
439,cabo san lucas,22.8909,-109.9124,20.84,74,0,0.45,MX,1701786378
440,waingapu,-9.6567,120.2641,27.82,82,54,1.14,ID,1701786654
441,maun,-19.9833,23.4167,38.28,14,85,3.07,BW,1701786654
442,porto novo,6.4965,2.6036,31.9,61,6,4.96,BJ,1701786654
443,prince george,53.9166,-122.753,4.69,90,75,4.63,CA,1701786655
444,hinesville,31.8469,-81.5959,12.29,47,0,0.0,US,1701786564
445,tabou,4.423,-7.3528,28.62,72,14,2.88,CI,1701786655
446,olyokminsk,60.3736,120.4264,-40.55,97,50,1.48,RU,1701786655
447,fushun,41.8558,123.9233,-0.16,89,80,2.69,CN,1701786655
448,pandan,14.0453,124.1694,26.78,87,63,4.03,PH,1701786656
449,anatuya,-28.4606,-62.8347,17.67,95,100,2.02,AR,1701786656
450,kuala belait,4.5833,114.1833,26.09,89,100,2.29,BN,1701786656
451,karor,31.2274,70.9492,19.38,27,0,2.47,PK,1701786656
452,ndola,-12.9587,28.6366,29.75,44,72,2.68,ZM,1701786380
453,saldanha,-33.0117,17.9442,25.03,71,97,12.11,ZA,1701786506
454,kapoeta,4.7717,33.5903,34.26,25,84,4.61,SS,1701786656
455,sodra sandby,56.5667,16.6167,1.61,84,100,5.39,SE,1701786657
456,baranchinskiy,58.1617,59.6991,-18.27,97,100,3.42,RU,1701786657
457,sindirgi,39.2413,28.1784,11.19,90,2,1.64,TR,1701786657
458,rio rancho,35.2334,-106.6645,4.16,78,0,2.06,US,1701786479
459,banda aceh,5.5577,95.3222,26.44,86,100,1.73,ID,1701786657
460,alpine,32.835,-116.7664,17.04,42,5,3.73,US,1701786657
461,bakanas,44.8081,76.2772,7.2,71,97,3.26,KZ,1701786508
462,pimentel,-6.8367,-79.9342,21.16,78,75,7.2,PE,1701786657
463,dhing,26.4667,92.4667,20.65,74,71,1.16,IN,1701786657
464,lodeve,43.7167,3.3167,11.51,77,83,4.63,FR,1701786658
465,soderhamn,61.3037,17.0592,-11.13,94,27,1.45,SE,1701786658
466,sao joao da barra,-21.6403,-41.0511,30.05,78,87,4.75,BR,1701786658
467,polyarnyy,69.1989,33.4478,-8.71,83,100,5.1,RU,1701786392
468,namdrik,5.5994,168.1028,28.13,81,99,9.7,MH,1701786658
469,fereydunshahr,32.941,50.121,4.79,19,0,0.96,IR,1701786658
470,pingliang,35.5392,106.6861,3.19,35,47,6.13,CN,1701786659
471,butterworth,5.3991,100.3638,26.02,97,40,2.57,MY,1701786659
472,santa elena de uairen,4.6167,-61.1333,28.4,38,37,2.78,VE,1701786659
473,yerofey pavlovich,53.9667,121.9667,-12.37,95,100,1.58,RU,1701786659
474,nebraska city,40.6767,-95.8592,4.01,80,40,5.66,US,1701786604
475,gole,52.1665,20.4937,-1.15,75,96,3.72,PL,1701786659
476,san luis de la loma,17.2706,-100.8939,27.49,63,100,1.22,MX,1701786660
477,port shepstone,-30.7414,30.455,19.19,89,100,4.65,ZA,1701786500
478,cururupu,-1.8283,-44.8683,31.76,57,99,3.52,BR,1701786660
479,mokhsogollokh,61.4681,128.9203,-45.99,99,52,1.51,RU,1701786660
480,talsi,57.2456,22.5814,-9.57,98,53,1.54,LV,1701786660
481,myeik,12.4333,98.6,25.77,87,65,1.13,MM,1701786661
482,hinton,53.4001,-117.5857,-0.04,87,95,3.12,CA,1701786661
483,camayenne,9.535,-13.6878,32.05,66,20,4.12,GN,1701786661
484,akrehamn,59.2667,5.1833,0.79,80,0,4.12,NO,1701786661
485,san julian,21.0167,-102.1667,11.97,73,100,1.47,MX,1701786633
486,lufkin,31.3382,-94.7291,7.25,93,0,0.0,US,1701786662
487,amahai,-3.3333,128.9167,27.14,80,95,1.55,ID,1701786662
488,maracacume,-2.0428,-45.9592,33.6,47,53,3.47,BR,1701786662
489,papao,-17.75,-149.55,25.82,82,100,7.94,PF,1701786663
490,sena madureira,-9.0656,-68.6569,31.22,53,94,0.75,BR,1701786663
491,zaragoza,41.6561,-0.8773,12.79,46,20,6.17,ES,1701786663
492,laplace,30.0666,-90.4801,13.32,88,0,0.0,US,1701786663
493,al kharijah,25.4514,30.5464,24.0,16,0,5.29,EG,1701786663
494,merizo village,13.2658,144.6691,26.32,90,6,7.5,GU,1701786664
495,toliara,-23.35,43.6667,26.01,69,87,3.12,MG,1701786664
496,punta alta,-38.8759,-62.0736,22.82,36,87,4.45,AR,1701786664
497,tambau,-21.705,-47.2744,28.37,41,89,1.35,BR,1701786469
498,wewak,-3.5534,143.6268,26.13,88,100,2.51,PG,1701786665
499,egilsstadir,65.2653,-14.3948,-15.05,92,75,1.03,IS,1701786665
500,erenhot,43.6475,111.9767,-7.55,49,3,9.41,CN,1701786665
501,kongsberg,59.6652,9.6465,-9.89,95,15,0.97,NO,1701786666
502,safi,32.1667,-8.8333,18.7,63,100,12.22,MA,1701786666
503,magistral'nyy,56.1725,107.4458,-23.13,90,100,1.86,RU,1701786666
504,ende,-8.8432,121.6623,26.69,88,58,0.37,ID,1701786666
505,nogliki,51.8333,143.1667,-9.81,96,90,1.79,RU,1701786666
506,kirando,-7.4167,30.6,23.6,78,96,1.23,TZ,1701786667
507,banes,20.9625,-75.7186,27.01,77,43,3.74,CU,1701786667
508,amursk,50.2261,136.8994,-12.38,93,100,3.65,RU,1701786667
509,okha,53.5739,142.9478,-8.03,90,100,6.97,RU,1701786668
510,necochea,-38.5473,-58.7368,23.44,30,6,4.72,AR,1701786668
511,salekhard,66.53,66.6019,-35.86,100,38,2.12,RU,1701786668
512,carolina beach,34.0352,-77.8936,13.36,59,6,3.87,US,1701786668
513,caister-on-sea,52.6481,1.7265,7.25,67,100,8.84,GB,1701786669
514,luza,60.6308,47.2512,-13.9,96,100,1.71,RU,1701786669
515,sorong,-0.8833,131.25,26.82,82,90,1.27,ID,1701786670
516,ponta delgada,37.7333,-25.6667,19.4,77,75,7.2,PT,1701786670
517,mili,6.0815,171.735,28.06,79,86,9.87,MH,1701786670
518,sarmiento,-45.5882,-69.07,21.19,32,79,4.26,AR,1701786671
519,hasaki,35.7333,140.8333,7.94,76,100,0.76,JP,1701786671
520,guerrero negro,27.9769,-114.0611,17.14,60,67,2.57,MX,1701786559
521,sao raimundo nonato,-9.0153,-42.6994,33.9,37,69,4.36,BR,1701786671
522,wynyard,-41.0,145.7167,12.5,74,84,5.19,AU,1701786671
523,krzyz wielkopolski,52.881,16.0112,-2.03,83,100,4.84,PL,1701786671
524,al bawiti,28.3492,28.8659,19.6,39,0,3.97,EG,1701786672
525,ballina,-28.8667,153.5667,19.88,89,4,1.65,AU,1701786672
526,alesund,62.4723,6.1549,-0.69,72,0,4.63,NO,1701786673
527,murzuq,25.9155,13.9184,20.4,30,10,1.47,LY,1701786673
528,barah,13.7,30.3667,30.16,12,68,4.62,SD,1701786673
529,port blair,11.6667,92.75,28.02,83,40,0.51,IN,1701786674
530,parabel',58.6978,81.4825,-20.61,98,100,4.47,RU,1701786674
531,belyy yar,53.6039,91.3903,-7.06,86,100,2.0,RU,1701786675
532,bilmak,47.3624,36.6511,-1.62,61,100,2.2,UA,1701786675
533,alupka,44.4167,34.05,6.92,80,19,6.73,UA,1701786675
534,mandalgovi,45.7625,106.2708,-10.0,42,0,5.61,MN,1701786617
535,lata,40.1629,-8.3327,10.04,74,100,1.8,PT,1701786676
536,maragogi,-9.0122,-35.2225,29.77,57,48,4.88,BR,1701786679
537,jaru,-10.4389,-62.4664,31.36,52,91,1.93,BR,1701786679
538,sandnessjoen,66.0217,12.6316,-0.88,93,75,4.63,NO,1701786681
539,chinsali,-10.5414,32.0816,23.76,63,97,1.46,ZM,1701786682
540,djamaa,33.5339,5.9931,18.86,32,100,2.05,DZ,1701786682
541,namibe,-15.1961,12.1522,29.35,74,75,5.14,AO,1701786683
542,mitsamiouli,-11.3847,43.2844,28.35,72,100,0.84,KM,1701786684
543,harpanahalli,14.8,75.9833,25.72,58,99,3.96,IN,1701786684
544,bonawon,9.134,122.9193,26.72,83,81,0.86,PH,1701786684
545,taoudenni,22.6783,-3.9836,28.02,9,88,3.29,ML,1701786684
546,retreat,38.8245,-85.8533,4.14,99,95,1.34,US,1701786685
547,dingzhou,38.5131,114.9956,3.06,31,80,2.79,CN,1701786685
548,puerto baquerizo moreno,-0.9,-89.6,24.55,88,75,7.2,EC,1701786685
549,oranjemund,-28.55,16.4333,19.66,69,1,10.64,NA,1701786686
550,pemangkat,1.1667,108.9667,25.47,91,100,2.37,ID,1701786687
551,namtsy,62.7161,129.6658,-46.54,99,48,1.97,RU,1701786690
552,lethem,3.3803,-59.7968,33.64,42,94,5.55,GY,1701786690
553,san justo,-30.7891,-60.5919,21.66,74,93,3.58,AR,1701786648
554,gorontalo,0.5412,123.0595,24.88,94,49,1.36,ID,1701786691
555,paka,4.6374,103.4368,25.96,94,97,0.51,MY,1701786691
556,craon,47.8469,-0.9493,9.32,71,10,6.37,FR,1701786692
557,emerald,-23.5333,148.1667,24.08,71,9,6.8,AU,1701786480
558,reggane,26.7158,0.1714,24.31,15,61,1.67,DZ,1701786692
559,am timan,11.0297,20.2827,35.04,14,76,1.14,TD,1701786693
560,tchintabaraden,15.8969,5.7985,33.08,9,42,5.04,NE,1701786693
561,freetown,8.484,-13.2299,28.84,70,75,5.66,SL,1701786694
562,micheweni,-4.9667,39.8333,28.15,74,12,3.56,TZ,1701786694
563,sweetwater,25.7634,-80.3731,25.57,66,40,3.6,US,1701786694
564,nemuro,43.3236,145.575,6.31,86,45,4.76,JP,1701786694
565,port-vila,-17.7338,168.3219,24.78,88,100,2.06,VU,1701786695
566,muromtsevo,56.3724,75.2418,-13.36,98,100,1.56,RU,1701786695
567,la peca,-5.6111,-78.435,26.35,67,72,2.05,PE,1701786695
568,axim,4.8699,-2.2405,29.02,70,23,4.23,GH,1701786695
569,kristiansund,63.1115,7.732,-1.64,69,75,2.06,NO,1701786696
570,dinga,32.6398,73.722,16.85,28,0,2.62,PK,1701786696
571,chernyshevskiy,63.0128,112.4714,-47.37,100,55,0.85,RU,1701786696
