City,Lat,Lng,Max Temp,Humidity,Cloudiness,Wind Speed,Country,Date
givet,50.138,4.8255,-0.16,80,19,2.57,FR,1701544329
atuncolla,-15.6833,-70.15,16.03,31,59,2.55,PE,1701544329
pasuquin,18.3328,120.6177,25.25,82,5,4.65,PH,1701544330
ulladulla,-35.35,150.4667,15.43,92,12,2.59,AU,1701544330
howrah,22.5892,88.3103,22.0,78,40,3.09,IN,1701544331
tiksi,71.6872,128.8694,-28.7,100,99,2.25,RU,1701544331
nova xavantina,-14.6667,-52.35,39.1,23,26,1.72,BR,1701544331
sinjar,36.3209,41.8754,12.69,49,7,1.48,IQ,1701544332
port-aux-francais,-49.35,70.2167,5.91,88,48,11.72,TF,1701544332
nichinan,31.6,131.3667,6.15,63,3,3.55,JP,1701544333
bilibino,68.0546,166.4372,-25.78,96,74,1.18,RU,1701544333
edinburgh of the seven seas,-37.0676,-12.3116,13.93,76,100,3.2,SH,1701544334
invercargill,-46.4,168.35,10.36,82,95,5.98,NZ,1701544227
grytviken,-54.2811,-36.5092,3.43,94,100,3.49,GS,1701544335
lorengau,-2.0226,147.2712,26.57,82,76,1.88,PG,1701544335
blackmans bay,-43.0167,147.3167,13.07,93,100,0.45,AU,1701544335
adamstown,-25.066,-130.1015,22.1,83,11,6.07,PN,1701544336
batouri,4.4333,14.3667,22.5,88,100,1.2,CM,1701544336
albany,42.6001,-73.9662,9.85,92,100,0.36,US,1701544218
kolonia,50.9333,6.95,0.54,77,100,2.06,DE,1701544337
la'ie,21.6477,-157.9253,26.98,90,2,1.34,US,1701544338
waitangi,-43.9535,-176.5597,14.34,78,100,5.36,NZ,1701544338
talnakh,69.4865,88.3972,-29.33,97,19,0.52,RU,1701544339
iqaluit,63.7506,-68.5145,-5.15,63,75,8.23,CA,1701544339
bethel,41.3712,-73.414,14.0,80,0,2.06,US,1701544251
bardai,11.65,7.2333,24.26,16,7,3.45,NG,1701544340
college,64.8569,-147.8028,-20.52,79,20,0.0,US,1701544153
marsh harbour,26.5412,-77.0636,26.39,79,64,6.48,BS,1701544341
ushuaia,-54.8,-68.3,5.79,79,98,5.1,AR,1701544341
kununurra,-15.7667,128.7333,26.99,78,76,0.0,AU,1701544342
west island,-12.1568,96.8225,25.99,73,75,5.66,CC,1701544342
new norfolk,-42.7826,147.0587,13.72,93,100,0.8,AU,1701544342
tazovsky,67.4667,78.7,-27.32,94,6,4.38,RU,1701544343
klyuchi,52.2667,79.1667,1.76,62,100,7.12,RU,1701544344
thompson,55.7435,-97.8558,-7.91,86,100,2.06,CA,1701544344
hamilton,39.1834,-84.5333,13.69,75,75,2.06,US,1701544345
sungai raya,0.7,108.9,26.01,87,98,1.12,ID,1701544345
dubno,50.4169,25.7343,1.18,97,100,5.03,UA,1701544346
dongning,44.0622,131.1207,-10.86,93,19,1.7,CN,1701544346
hadibu,12.65,54.0333,25.63,75,65,6.49,YE,1701544346
petropavlovsk-kamchatsky,53.0452,158.6483,-8.08,81,20,7.6,RU,1701544347
stanley,54.868,-1.6985,-2.49,96,20,1.03,GB,1701544347
tralee,52.2704,-9.7026,0.14,100,20,1.54,IE,1701544347
alta,69.9689,23.2717,-15.41,78,58,3.09,NO,1701544348
yuzhno-kurilsk,44.0306,145.8556,1.32,64,10,4.58,RU,1701544348
la ronge,55.1001,-105.2842,-6.86,79,75,2.06,CA,1701544349
bamboo flat,11.7,92.7167,26.05,94,40,0.51,IN,1701544349
taksimo,56.3444,114.8794,-16.56,95,100,0.3,RU,1701544349
pisco,-13.7,-76.2167,24.03,64,0,10.29,PE,1701544199
midvagur,62.0511,-7.1939,2.46,80,20,4.12,FO,1701544350
badger,64.8,-147.5333,-20.57,82,100,0.0,US,1701544351
tofol,5.3248,163.0078,28.06,78,92,6.35,FM,1701544351
lihue,21.9789,-159.3672,25.58,86,0,0.0,US,1701544351
ebaye,8.7748,167.7392,28.01,78,40,7.2,MH,1701544352
changji,44.0167,87.3167,-3.56,93,75,1.0,CN,1701544352
al mindak,20.1588,41.2834,16.78,47,1,3.06,SA,1701544353
wailua homesteads,22.0669,-159.378,25.24,89,0,0.0,US,1701544353
papao,-17.75,-149.55,29.82,82,33,10.18,PF,1701544354
lebu,-37.6167,-73.65,13.1,51,0,9.59,CL,1701544354
jijel,36.8205,5.7667,16.97,51,40,5.66,DZ,1701544354
puerto ayora,-0.7393,-90.3518,29.98,91,75,3.58,EC,1701544355
ribeira grande,38.5167,-28.7,15.22,55,75,5.81,PT,1701544250
howard springs,-12.497,131.047,27.95,95,100,1.54,AU,1701544356
enewetak,11.3474,162.3373,27.56,76,86,8.09,MH,1701544356
puerto natales,-51.7236,-72.4875,7.25,65,75,12.35,CL,1701544357
zhangjiakou,40.81,114.8794,-4.74,59,2,0.57,CN,1701544357
chinde,26.8418,88.0763,11.96,70,0,2.45,NP,1701544357
avarua,-21.2078,-159.775,25.03,82,100,4.63,CK,1701544358
mufulira,-12.5498,28.2407,17.99,93,88,1.7,ZM,1701544358
papatowai,-46.5619,169.4708,10.11,92,100,6.57,NZ,1701544251
santa maria do para,-1.3503,-47.5756,29.39,65,79,2.88,BR,1701544359
georgetown,5.4112,100.3354,26.12,83,20,1.54,MY,1701544359
ephrata,40.1798,-76.1788,16.19,72,0,3.09,US,1701544314
uturoa,-16.7333,-151.4333,26.97,80,100,8.74,PF,1701544360
kilindoni,-7.9139,39.6668,27.36,80,90,3.93,TZ,1701544360
palikir - national government center,6.9248,158.1611,24.41,100,100,0.0,FM,1701544361
bredasdorp,-34.5322,20.0403,17.56,68,100,2.84,ZA,1701544361
tshabong,-26.05,22.45,30.85,13,61,4.39,BW,1701544361
fale old settlement,-9.3852,-171.2468,27.12,72,100,2.33,TK,1701544362
meiganga,6.5167,14.3,24.91,45,100,0.22,CM,1701544362
susuman,62.7833,148.1667,-32.76,99,100,0.86,RU,1701544362
olonkinbyen,70.9221,-8.7187,-0.99,82,64,7.8,SJ,1701544363
maymana,35.9214,64.7836,10.84,50,7,0.7,AF,1701544363
okhotsk,59.3833,143.3,-32.74,88,52,4.94,RU,1701544363
am timan,11.0297,20.2827,29.54,24,1,1.84,TD,1701544364
acu,-5.5767,-36.9086,33.17,42,24,8.22,BR,1701544364
dolinsk,47.35,142.8,-7.93,86,22,2.48,RU,1701544364
soata,6.3337,-72.6828,25.59,30,46,1.25,CO,1701544365
combourg,48.4127,-1.7442,3.01,74,100,4.17,FR,1701544365
panadura,6.7132,79.9026,26.09,86,100,1.97,LK,1701544365
naze,28.3667,129.4833,15.15,66,100,4.43,JP,1701544366
porto-vecchio,41.591,9.2795,13.74,54,75,11.83,FR,1701544366
zaozersk,69.4005,32.4476,-2.54,95,100,2.2,RU,1701544366
essaouira,31.5125,-9.77,17.72,72,20,4.63,MA,1701544366
margaret river,-33.95,115.0667,17.06,84,100,4.88,AU,1701544367
qrendi,35.8347,14.4583,17.84,68,0,6.69,MT,1701544367
trail,49.0998,-117.7022,3.87,90,100,0.69,CA,1701544367
utrik,11.2278,169.8474,27.14,76,83,9.01,MH,1701544256
manokwari,-0.8667,134.0833,25.57,84,100,1.37,ID,1701544368
gadzhiyevo,69.2551,33.3362,-0.73,92,100,3.97,RU,1701544368
udachny,66.4167,112.4,-34.2,66,98,1.55,RU,1701544369
bikenibeu village,1.3673,173.1241,26.98,89,75,3.09,KI,1701544369
mossel bay,-34.1831,22.146,18.96,80,99,4.09,ZA,1701544369
schladen,52.0222,10.5397,1.61,91,100,1.56,DE,1701544370
isafjordur,66.0755,-23.124,-3.5,72,31,1.84,IS,1701544370
port mathurin,-19.6833,63.4167,25.69,79,100,5.75,MU,1701544370
belyy yar,53.6039,91.3903,-1.06,86,0,3.0,RU,1701544371
st. john's,47.5649,-52.7093,4.75,93,100,2.68,CA,1701544072
mount gambier,-37.8333,140.7667,8.52,95,8,1.13,AU,1701544371
kirillov,59.863,38.3813,-9.45,98,91,1.05,RU,1701544372
paracatu,-17.2222,-46.8747,30.47,48,55,2.27,BR,1701544372
la villa del rosario,10.3258,-72.3134,30.93,56,100,1.7,VE,1701544372
kodiak,57.79,-152.4072,3.73,93,100,4.63,US,1701544373
kelibia,36.8476,11.0939,17.14,67,40,1.54,TN,1701544373
higuera de zaragoza,25.95,-109.2833,23.96,45,0,6.41,MX,1701544373
mabaruma,8.2,-59.7833,30.27,52,11,3.3,GY,1701544374
agua dulce,18.1333,-94.1333,30.88,71,100,1.84,MX,1701544374
port lincoln,-34.7333,135.8667,14.19,79,4,4.84,AU,1701544374
bichura,50.5881,107.6022,-11.86,91,82,1.72,RU,1701544375
al bardiyah,31.7561,25.0865,18.97,52,100,3.98,LY,1701544375
holualoa,19.6228,-155.9522,25.48,86,40,0.45,US,1701544376
rongelap,11.1635,166.8941,27.35,75,78,8.76,MH,1701544376
banmankhi,25.8833,87.1833,20.55,56,0,2.23,IN,1701544376
flying fish cove,-10.4217,105.6791,23.82,83,40,2.57,CX,1701544377
rumphi,-11.0186,33.8575,20.32,90,94,1.07,MW,1701544377
carnarvon,-24.8667,113.6333,22.21,77,0,8.63,AU,1701544377
punta arenas,-53.15,-70.9167,9.06,57,75,11.83,CL,1701544368
orenburg,51.7727,55.0988,-0.99,82,100,7.48,RU,1701544378
jamestown,42.097,-79.2353,11.12,95,100,3.09,US,1701544176
cabo san lucas,22.8909,-109.9124,26.61,50,0,2.06,MX,1701544345
selkirk,50.1436,-96.8845,1.71,67,100,4.02,CA,1701544154
kapa'a,22.0752,-159.319,25.99,89,0,0.0,US,1701544379
arak,34.0917,49.6892,8.38,33,0,0.79,IR,1701544379
moissala,8.3404,17.7663,29.53,29,54,0.77,TD,1701544380
richards bay,-28.783,32.0377,21.25,82,0,2.09,ZA,1701544380
kollam,8.8833,76.6,26.23,84,49,1.33,IN,1701544381
mantua,45.1667,10.7833,10.75,77,76,0.45,IT,1701544365
sol'-iletsk,51.1631,54.9918,-1.74,79,100,8.04,RU,1701544381
nar'yan-mar,67.6713,53.087,-9.94,95,100,5.36,RU,1701544382
afaahiti,-17.75,-149.2833,28.93,85,64,9.76,PF,1701544382
prymors'k,46.7348,36.3443,9.21,96,98,3.96,UA,1701544382
behbahan,30.5959,50.2417,16.7,49,0,0.42,IR,1701544383
morehead city,34.7229,-76.726,23.01,91,100,4.12,US,1701544238
port blair,11.6667,92.75,26.02,94,40,0.51,IN,1701544383
buka,40.8108,69.1986,10.07,46,2,1.41,UZ,1701544384
muynoq,43.7683,59.0214,8.59,54,100,4.22,UZ,1701544384
puerto deseado,-47.7503,-65.8938,10.04,45,95,2.54,AR,1701544280
viedma,-40.8135,-62.9967,18.23,14,15,7.21,AR,1701544169
ketchikan,55.3422,-131.6461,4.26,93,100,2.06,US,1701544385
eyl,7.9803,49.8164,25.8,69,67,8.47,SO,1701544385
tucuma,-0.1833,-50.05,30.65,60,35,3.73,BR,1701544386
qaqortoq,60.7167,-46.0333,-1.19,76,100,3.34,GL,1701544386
le vauclin,14.5452,-60.8388,30.03,66,40,5.66,MQ,1701544190
haiku-pauwela,20.9219,-156.3051,25.58,76,20,1.54,US,1701544387
freeport,40.6576,-73.5832,15.99,83,0,4.63,US,1701544199
ancud,-41.8697,-73.8203,11.23,56,23,6.64,CL,1701544388
souillac,-20.5167,57.5167,23.21,94,75,1.54,MU,1701544388
ust-nera,64.5667,143.2,-32.11,99,100,1.23,RU,1701544389
cidreira,-30.1811,-50.2056,22.9,95,100,3.21,BR,1701544389
kodinsk,58.6881,99.1844,-7.53,99,96,1.82,RU,1701544390
togur,58.3631,82.8265,-11.59,97,97,2.24,RU,1701544390
east london,-33.0153,27.9116,21.02,76,100,3.06,ZA,1701544390
gumel,12.6279,9.3912,25.58,15,11,2.65,NG,1701544391
agat village,13.3886,144.6585,28.06,86,20,4.12,GU,1701544391
ilulissat,69.2167,-51.1,-0.99,47,0,3.6,GL,1701544391
tura,25.5198,90.2201,17.64,82,22,1.84,IN,1701544392
toliara,-23.35,43.6667,22.85,54,0,10.47,MG,1701544392
maumere,-8.6199,122.2111,26.94,83,95,1.88,ID,1701544392
rampur,28.8167,79.0333,17.1,57,0,2.67,IN,1701544393
floro,61.5996,5.0328,-0.02,69,100,5.66,NO,1701544393
mulvane,37.4745,-97.2439,5.03,71,100,3.09,US,1701544394
reykjavik,64.1355,-21.8954,-2.9,74,0,2.57,IS,1701544394
aoulef,26.9667,1.0833,20.75,12,76,1.77,DZ,1701544394
praia da vitoria,38.7333,-27.0667,15.14,63,40,9.27,PT,1701544395
antalaha,-14.9003,50.2788,24.1,92,100,2.31,MG,1701544395
hermanus,-34.4187,19.2345,17.61,69,97,2.83,ZA,1701544396
la passe,45.5549,-0.8967,0.13,82,10,2.1,FR,1701544396
karachi,24.9056,67.0822,19.9,52,0,3.09,PK,1701544269
sao miguel do araguaia,-13.275,-50.1628,35.8,31,90,0.91,BR,1701544397
alo,7.4178,6.7371,29.81,44,95,0.45,NG,1701544397
amasra,41.7463,32.3863,15.33,67,100,5.27,TR,1701544397
newman,37.3138,-121.0208,15.59,70,100,1.34,US,1701544398
cabedelo,-6.9811,-34.8339,29.37,70,90,3.93,BR,1701544398
vilyuchinsk,52.9306,158.4028,-7.26,83,100,3.79,RU,1701544399
nabire,-3.3667,135.4833,23.9,92,78,1.3,ID,1701544399
zuwarah,32.9312,12.082,20.7,54,100,4.85,LY,1701544399
al matlin,37.2452,10.05,15.77,63,5,8.28,TN,1701544400
korla,41.7597,86.1469,-0.1,45,8,1.04,CN,1701544401
longyearbyen,78.2186,15.6401,-8.09,73,75,1.54,SJ,1701544401
sibu,2.3,111.8167,24.17,100,20,0.0,MY,1701544401
nemuro,43.3236,145.575,1.55,59,6,5.04,JP,1701544402
castillos,-34.1667,-53.8333,24.28,74,100,2.18,UY,1701544402
antonio enes,-16.2325,39.9086,25.58,69,0,5.09,MZ,1701544402
kailua-kona,19.6406,-155.9956,27.55,85,40,1.34,US,1701544334
kone,-21.0595,164.8658,23.52,83,4,1.46,NC,1701544403
gisborne,-38.6533,178.0042,15.23,72,100,2.22,NZ,1701544403
greenville,35.6127,-77.3663,22.01,92,75,0.0,US,1701544265
tindouf,27.6711,-8.1474,20.25,45,0,6.17,DZ,1701544404
colonia,50.9333,6.95,0.54,77,100,2.06,DE,1701544257
laguna,38.421,-121.4238,14.6,89,100,4.63,US,1701544405
las lomitas,-24.7096,-60.593,42.6,21,17,5.42,AR,1701544405
yushu,44.8,126.5333,-15.41,97,55,3.06,CN,1701544405
kenai,60.5544,-151.2583,-4.36,92,100,4.12,US,1701544406
price,39.5994,-110.8107,2.59,55,20,3.6,US,1701544406
selfoss,63.9331,-20.9971,-5.53,61,91,3.59,IS,1701544406
galashki,43.1136,44.9894,12.49,51,26,2.76,RU,1701544407
saint-philippe,-21.3585,55.7679,23.77,92,100,1.85,RE,1701544407
preobrazheniye,42.9019,133.9064,-4.77,64,52,2.79,RU,1701544407
codrington,-38.2667,141.9667,13.26,83,90,2.77,AU,1701544408
arraial do cabo,-22.9661,-42.0278,29.98,69,20,6.69,BR,1701544408
qarazhal,48.0078,70.7903,2.64,57,100,8.48,KZ,1701544408
chhindwara,22.0667,78.9333,18.92,82,66,2.95,IN,1701544409
yanta,36.2411,115.6672,1.41,33,0,1.94,CN,1701544409
maragogi,-9.0122,-35.2225,27.54,70,68,5.13,BR,1701544409
zhezqazghan,47.7833,67.7667,3.95,62,100,7.6,KZ,1701544410
ola,59.5833,151.2833,-13.37,88,100,2.3,RU,1701544410
visby,57.6409,18.296,0.12,74,100,2.57,SE,1701544411
manta,-0.95,-80.7333,31.88,51,40,4.63,EC,1701544162
patong,7.8961,98.2966,25.08,83,35,3.62,TH,1701544411
whitehorse,60.7161,-135.0538,-11.57,92,100,1.03,CA,1701544346
saipan,15.1355,145.701,27.39,78,40,7.2,MP,1701544412
yellowknife,62.456,-114.3525,-20.29,98,19,2.41,CA,1701544253
kotel'nich,58.3089,48.348,-13.06,97,100,2.19,RU,1701544413
iskateley,67.6803,53.1512,-9.99,95,100,5.36,RU,1701544413
camana,-16.6228,-72.7111,21.98,67,40,4.3,PE,1701544194
anadyr,64.75,177.4833,-19.72,83,0,3.0,RU,1701544414
damavand,35.7178,52.065,5.33,37,0,0.75,IR,1701544414
dalmatovo,56.26,62.9362,-3.58,96,100,5.64,RU,1701544414
cafayate,-26.073,-65.9761,30.69,43,10,5.82,AR,1701544415
chela,34.069,104.4619,-0.12,52,100,0.71,CN,1701544415
toba,34.4833,136.85,9.0,67,0,7.06,JP,1701544415
caazapa,-26.15,-56.4,34.91,54,61,1.56,PY,1701544416
city of balikpapan,-1.242,116.8942,24.2,91,74,1.33,ID,1701544416
chukhloma,58.7525,42.6825,-12.17,99,70,0.89,RU,1701544416
callao,-12.0667,-77.15,21.16,78,75,4.12,PE,1701544417
wanning,18.8003,110.3967,23.25,90,100,5.15,CN,1701544417
remire-montjoly,4.9167,-52.2667,31.02,62,0,4.63,GF,1701544417
selizharovo,56.8519,33.4487,-16.42,100,91,0.99,RU,1701544418
ha giang,22.8333,104.9833,18.22,99,100,0.78,VN,1701544418
beau vallon,-20.4189,57.6953,23.13,94,75,1.54,MU,1701544419
igrim,63.1906,64.4162,-14.95,95,100,3.41,RU,1701544419
aasiaat,68.7098,-52.8699,-12.54,83,69,1.44,GL,1701544419
vorkuta,67.5,64.0,-12.99,95,98,1.99,RU,1701544420
boguchany,58.3814,97.4531,-6.19,97,100,1.79,RU,1701544420
suicheng,33.8963,117.9331,3.22,38,100,1.82,CN,1701544421
san antonio de pale,-1.4014,5.6325,26.97,80,80,3.01,GQ,1701544421
ishigaki,24.3448,124.1572,21.07,83,100,7.72,JP,1701544421
urengoy,65.9667,78.3667,-27.47,92,5,4.14,RU,1701544422
ecoporanga,-18.3733,-40.8306,31.49,48,100,2.42,BR,1701544422
cockburn town,21.4612,-71.1419,27.2,77,95,9.12,TC,1701544422
jarabulus,36.8175,38.0111,9.19,57,6,0.65,SY,1701544423
pocone,-16.2567,-56.6228,38.81,25,91,2.21,BR,1701544423
tobruk,32.0836,23.9764,19.68,39,100,4.08,LY,1701544423
sao jose da coroa grande,-8.8978,-35.1478,27.6,70,77,4.98,BR,1701544296
port elizabeth,-33.918,25.5701,19.62,87,20,1.54,ZA,1701544424
sao gabriel,-30.3364,-54.32,20.85,95,100,3.11,BR,1701544424
mecca,21.4267,39.8261,26.26,67,2,1.56,SA,1701544334
dudinka,69.4058,86.1778,-29.1,88,6,8.09,RU,1701544425
los altos,37.3852,-122.1141,17.25,80,100,2.57,US,1701544425
kerikeri,-35.2268,173.9474,17.73,92,100,2.39,NZ,1701544425
filadelfia,39.9523,-75.1638,15.9,87,75,2.24,US,1701544386
ypsonas,34.6884,32.9574,15.47,88,0,1.54,CY,1701544426
uzyn,49.8262,30.4149,0.9,98,100,5.38,UA,1701544426
port alfred,-33.5906,26.891,18.43,91,53,3.56,ZA,1701544427
ambovombe,-25.1667,46.0833,21.13,59,68,8.4,MG,1701544427
immokalee,26.4187,-81.4173,30.55,67,75,3.09,US,1701544427
fisterra,42.9049,-9.2629,8.75,69,99,3.3,ES,1701544428
colonel hill,22.7667,-74.2167,27.28,76,79,6.88,BS,1701544428
turpan,42.9333,89.1667,1.46,44,9,0.55,CN,1701544428
west end,26.6833,-78.9667,27.99,84,100,5.34,BS,1701544429
long beach,33.767,-118.1892,20.2,68,0,4.12,US,1701544209
vredendal,-31.6683,18.5012,17.2,72,0,6.8,ZA,1701544429
beroroha,-21.6667,45.1667,26.48,54,56,3.95,MG,1701544430
kerema,-7.9631,145.7785,25.33,84,100,1.59,PG,1701544430
lira,2.235,32.9097,22.2,65,98,1.52,UG,1701544430
northam,51.0333,-4.2167,5.14,83,100,7.76,GB,1701544431
poyarkovo,49.6,128.6833,-18.52,94,17,2.71,RU,1701544431
anloga,5.7947,0.8973,27.97,78,97,3.81,GH,1701544431
gushu,31.5598,118.4829,-0.01,35,97,1.38,CN,1701544432
pontianak,-0.0333,109.3333,25.99,94,100,1.03,ID,1701544352
tecuala,22.3986,-105.4569,28.32,43,100,1.93,MX,1701544432
hawaiian paradise park,19.5933,-154.9731,26.04,86,0,2.06,US,1701544433
hilo,19.7297,-155.09,26.45,82,0,2.06,US,1701544433
bonthe,7.5264,-12.505,27.01,84,93,3.1,SL,1701544434
jinchang,38.4953,102.1739,-0.83,22,17,1.26,CN,1701544434
vadso,70.0744,29.7487,1.09,93,100,1.54,NO,1701544434
ephraim,39.3597,-111.5863,3.23,60,60,3.9,US,1701544435
kita,13.0349,-9.4895,30.32,17,11,2.07,ML,1701544435
chonchi,-42.6128,-73.8092,11.56,63,80,3.81,CL,1701544435
pueblo nuevo,23.3833,-105.3833,17.52,41,100,2.35,MX,1701544436
shalkar,47.8288,59.6258,7.47,83,100,10.81,KZ,1701544436
happy valley-goose bay,53.3168,-60.3315,-7.83,62,20,4.12,CA,1701544437
bedford,52.1346,-0.4663,-1.3,96,45,3.14,GB,1701544430
effium,6.6292,8.0593,29.4,54,87,3.23,NG,1701544437
conde,-7.2597,-34.9075,28.7,65,20,5.66,BR,1701544437
adrar,20.5022,-10.0711,24.21,31,11,3.21,MR,1701544438
ceeldheer,3.8488,47.1806,26.6,69,100,7.52,SO,1701544438
mejit,10.2753,170.8646,27.7,74,96,6.62,MH,1701544439
nadi,-17.8,177.4167,27.0,74,20,2.57,FJ,1701544439
sully-sur-loire,47.7637,2.3724,-1.75,71,7,0.82,FR,1701544439
acajutla,13.5928,-89.8275,30.32,63,0,3.4,SV,1701544204
tazacorte,28.629,-17.9293,20.08,93,100,4.12,ES,1701544440
soufriere,13.8562,-61.0566,29.81,74,75,9.26,LC,1701544440
mahibadhoo,3.7833,72.9667,27.94,79,100,4.72,MV,1701544440
faya-largeau,17.9257,19.1043,25.19,14,12,5.3,TD,1701544441
vallenar,-28.5708,-70.7581,25.88,21,0,4.88,CL,1701544441
munsan,37.8594,126.785,-2.02,69,1,1.79,KR,1701544441
aykhal,66.0,111.5,-34.6,100,99,2.05,RU,1701544442
copiapo,-27.3667,-70.3333,29.05,23,0,4.78,CL,1701544159
neryungri,56.6709,124.6491,-24.74,96,96,1.55,RU,1701544443
vilyuysk,63.7553,121.6247,-41.54,100,100,1.24,RU,1701544443
uliastay,47.7417,96.8444,-12.38,67,66,3.15,MN,1701544444
najran,17.4924,44.1277,17.36,36,0,1.67,SA,1701544444
tolanaro,-25.0319,46.9987,21.11,63,100,3.47,MG,1701544444
hotan,37.0997,79.9269,1.61,35,5,0.68,CN,1701544445
labrador city,52.9463,-66.9114,-12.01,86,57,0.71,CA,1701544278
pandan,14.0453,124.1694,26.18,87,100,5.97,PH,1701544445
sisimiut,66.9395,-53.6735,-4.46,74,99,3.27,GL,1701544446
swakopmund,-22.6833,14.5333,17.77,83,89,2.24,NA,1701544446
hancheng,32.5186,112.3522,6.62,39,100,2.51,CN,1701544446
kongoussi,13.3258,-1.5347,29.79,14,52,4.02,BF,1701544447
vila franca do campo,37.7167,-25.4333,17.16,99,100,3.67,PT,1701544447
atafu village,-8.5421,-172.5159,26.94,69,100,1.11,TK,1701544447
cill airne,52.05,-9.5167,0.03,100,20,1.54,IE,1701544448
pangody,65.85,74.4859,-26.81,92,8,4.74,RU,1701544448
lewiston orchards,46.3804,-116.9754,6.04,86,100,0.0,US,1701544277
namdrik,5.5994,168.1028,28.0,78,39,8.36,MH,1701544449
ruteng,-8.6136,120.4721,17.28,93,100,0.72,ID,1701544449
alto araguaia,-17.3147,-53.2153,32.09,36,98,2.17,BR,1701544449
bandar abbas,27.1865,56.2808,23.99,73,0,2.06,IR,1701544450
motueka,-41.1333,173.0167,16.72,97,100,3.77,NZ,1701544450
pires do rio,-17.2997,-48.2794,34.14,31,22,3.59,BR,1701544451
brandon,27.9378,-82.2859,30.72,77,100,3.6,US,1701544243
navoiy,40.0844,65.3792,6.71,87,20,3.09,UZ,1701544451
tokar,18.4254,37.729,27.86,67,45,6.25,SD,1701544452
aliveri,38.4167,24.0333,20.62,82,100,4.79,GR,1701544452
coquimbo,-29.9533,-71.3436,19.85,59,0,6.69,CL,1701544398
hobyo,5.3505,48.5268,26.53,72,100,8.04,SO,1701544453
vuktyl,63.8567,57.3094,-8.83,94,100,1.34,RU,1701544453
sao felix do xingu,-6.6447,-51.995,35.37,34,100,2.34,BR,1701544453
kapuskasing,49.4169,-82.4331,-0.95,59,20,2.57,CA,1701544454
salmas,38.1973,44.7653,4.91,46,34,0.2,IR,1701544454
podgornoye,51.735,39.1496,-2.97,86,0,2.0,RU,1701544454
suihua,46.6406,126.9969,-21.28,100,99,2.96,CN,1701544455
sai buri,6.7013,101.6168,25.54,91,100,3.21,TH,1701544455
fort st. john,56.2499,-120.8529,-10.06,85,75,1.54,CA,1701544456
trairi,-3.2778,-39.2689,29.15,60,10,6.07,BR,1701544400
cho dok,10.7,105.1167,24.61,89,100,6.26,VN,1701544456
alice springs,-23.7,133.8833,19.75,64,4,0.0,AU,1701544457
salinopolis,-0.6136,-47.3561,29.15,68,11,4.27,BR,1701544457
villa gesell,-37.2639,-56.973,28.36,51,0,5.7,AR,1701544458
songling,31.1933,120.7176,7.08,40,100,0.89,CN,1701544458
kaoma,-14.7833,24.8,21.23,79,94,1.73,ZM,1701544458
dunhua,43.3725,128.2425,-12.91,91,7,2.24,CN,1701544459
fort bragg,35.139,-79.006,22.85,76,40,2.57,US,1701544459
chania,35.5122,24.0156,15.78,88,40,0.0,GR,1701544459
bodaybo,57.8506,114.1933,-7.71,96,100,1.44,RU,1701544460
garliava,54.8167,23.8667,-2.01,89,100,1.65,LT,1701544460
isla vista,34.4133,-119.861,20.01,49,0,3.09,US,1701544460
ad darb,17.7229,42.2526,27.78,62,0,0.21,SA,1701544461
cambria,35.5641,-121.0808,18.19,78,42,1.79,US,1701544461
sao vicente,-23.9631,-46.3919,35.71,26,11,0.89,BR,1701544267
vorgashor,67.5833,63.95,-13.95,94,96,2.39,RU,1701544298
angaur state,6.906,134.13,28.56,77,15,6.07,PW,1701544462
hargeysa,9.56,44.065,16.26,88,77,4.4,SO,1701544462
ciudad melchor muzquiz,27.8833,-101.5167,19.65,25,100,0.86,MX,1701544463
berdigestyakh,62.0989,126.6992,-33.58,100,99,1.06,RU,1701544463
plettenberg bay,-34.0527,23.3716,17.04,90,17,0.96,ZA,1701544463
wanganui,-39.9333,175.05,14.77,99,100,3.68,NZ,1701544205
bo phloi,14.3236,99.5161,23.25,89,100,2.98,TH,1701544464
i-n-salah,27.1935,2.4607,20.73,10,0,2.82,DZ,1701544464
basco,20.4487,121.9702,25.89,78,54,9.44,PH,1701544465
lata,40.1629,-8.3327,8.37,85,0,0.4,PT,1701544465
smirnykh,49.75,142.8333,-11.68,92,33,1.69,RU,1701544465
burang,30.25,81.1667,-11.24,52,0,1.34,CN,1701544466
folkston,30.8305,-82.0098,23.88,96,100,1.19,US,1701544466
gebeit,21.0667,36.3167,21.9,76,0,3.52,SD,1701544467
novodvinsk,64.4165,40.8122,-13.45,99,96,0.78,RU,1701544468
el calafate,-50.3408,-72.2768,8.96,48,39,10.74,AR,1701544468
seminole,28.7086,-81.2081,29.65,74,100,3.6,US,1701544468
geraldton,-28.7667,114.6,21.23,68,75,6.17,AU,1701544469
el granada,37.5027,-122.4694,16.79,90,75,3.6,US,1701544469
yelizovo,53.1873,158.3805,-7.33,78,20,2.0,RU,1701544469
zeya,53.75,127.2667,-16.4,91,44,1.34,RU,1701544470
feijo,-8.1642,-70.3536,30.88,61,100,1.28,BR,1701544470
tangalle,6.024,80.7911,26.09,92,79,4.66,LK,1701544471
boyolangu,-8.1181,111.8935,25.0,87,95,2.21,ID,1701544471
prince rupert,54.3161,-130.3201,4.83,90,100,12.35,CA,1701544472
dano,11.15,-3.0667,31.45,17,39,2.62,BF,1701544275
tuba city,36.135,-111.2399,7.43,46,6,1.83,US,1701544472
greymouth,-42.4667,171.2,15.74,99,100,6.77,NZ,1701544473
al jawf,29.5,38.75,16.18,43,0,4.88,SA,1701544473
socorro,31.6546,-106.3033,13.6,43,0,4.63,US,1701544473
as sulayyil,20.4607,45.5779,19.14,33,0,3.98,SA,1701544474
sola,-13.8833,167.55,26.88,83,100,8.91,VU,1701544474
crescent city,41.756,-124.2018,12.88,99,100,7.2,US,1701544453
fuerte olimpo,-21.0415,-57.8738,40.89,23,81,4.81,PY,1701544475
sulphur springs,33.1385,-95.6011,14.08,49,100,2.14,US,1701544475
nishinoomote,30.7333,131.0,13.15,65,100,9.76,JP,1701544475
bandon,51.7469,-8.7425,4.77,88,62,1.61,IE,1701544476
villa la angostura,-40.7617,-71.6463,6.0,78,80,5.06,AR,1701544476
vila velha,-20.3297,-40.2925,30.97,80,40,6.17,BR,1701544268
conduaga,8.862,117.4893,26.07,85,100,1.15,PH,1701544477
nadym,65.5333,72.5167,-24.46,91,13,4.73,RU,1701544477
slupsk,54.4641,17.0287,0.25,97,100,1.95,PL,1701544477
queenstown,-31.8976,26.8753,18.44,76,79,2.04,ZA,1701544478
grants,35.1473,-107.8514,5.13,33,0,5.66,US,1701544478
dryden,49.7833,-92.7503,-1.84,64,100,4.63,CA,1701544478
newnham,-41.3833,147.1333,13.81,94,40,2.06,AU,1701544479
solleftea,63.1667,17.2667,-12.08,97,100,1.66,SE,1701544479
kencong,-8.2833,113.3667,25.23,84,100,0.82,ID,1701544479
pimentel,-6.8367,-79.9342,26.16,61,0,10.29,PE,1701544479
luderitz,-26.6481,15.1594,19.12,67,9,8.71,NA,1701544480
pastos bons,-6.6017,-44.0767,35.39,31,100,3.42,BR,1701544480
simanggang,1.2472,111.4528,24.99,94,100,0.0,MY,1701544480
nagqu,31.5,92.0,-8.6,51,69,1.25,CN,1701544481
diego de almagro,-26.3667,-70.05,29.12,14,0,6.09,CL,1701544481
qulsary,46.9531,54.0198,9.77,83,100,7.88,KZ,1701544481
tadine,-21.55,167.8833,22.8,77,62,2.12,NC,1701544482
riohacha,11.5444,-72.9072,34.06,46,20,10.29,CO,1701544482
shimoda,34.6667,138.95,9.35,74,4,4.43,JP,1701544482
issoudun,47.0,1.8333,-2.17,86,0,2.57,FR,1701544483
beloretsk,53.9631,58.3981,-2.49,98,99,1.34,RU,1701544185
margate,51.3813,1.3862,-1.5,75,5,3.77,GB,1701544483
port augusta,-32.5,137.7667,16.19,67,0,2.74,AU,1701544483
hasaki,35.7333,140.8333,1.22,51,100,1.8,JP,1701544484
boa vista,2.8197,-60.6733,34.99,34,40,4.63,BR,1701544484
dergachi,51.2328,48.7659,-2.78,83,96,4.84,RU,1701544485
patterson,37.4716,-121.1297,14.5,70,100,2.87,US,1701544485
trujillo,-8.116,-79.03,21.98,78,49,5.14,PE,1701544485
freetown,8.484,-13.2299,28.84,79,40,4.63,SL,1701544486
guerrero negro,27.9769,-114.0611,20.12,46,0,1.96,MX,1701544486
linkou,45.3,130.2833,-19.5,100,26,0.79,CN,1701544486
pout,14.7739,-17.0603,27.42,65,0,6.17,SN,1701544486
mount isa,-20.7333,139.5,25.87,73,100,1.03,AU,1701544487
utete,-7.986,38.758,24.23,96,100,1.84,TZ,1701544487
nueva gerona,21.8833,-82.8,28.76,66,90,5.61,CU,1701544487
betio village,1.358,172.9211,27.02,81,100,6.61,KI,1701544488
puerto baquerizo moreno,-0.9,-89.6,28.55,74,20,8.23,EC,1701544336
sinjai,-5.1241,120.253,25.23,83,100,1.6,ID,1701544488
masterton,-40.9597,175.6575,13.82,76,100,3.5,NZ,1701544245
coahuayana de hidalgo,18.7,-103.6583,30.51,51,100,1.29,MX,1701544489
lagoa,39.05,-27.9833,14.43,60,100,9.32,PT,1701544489
manavalakurichi,8.1333,77.3,26.38,86,100,2.32,IN,1701544490
nova sintra,14.8667,-24.7167,23.06,75,100,4.93,CV,1701544490
sept-iles,50.2001,-66.3821,-3.0,65,20,2.57,CA,1701544490
nuku'alofa,-21.1333,-175.2,28.19,83,20,5.66,TO,1701544490
hermansverk,61.1846,6.8502,-6.75,92,20,0.0,NO,1701544491
vryburg,-26.9566,24.7284,26.22,18,5,2.1,ZA,1701544491
zharkent,44.1628,80.0,4.66,61,98,2.02,KZ,1701544491
agnibilekrou,7.1344,-3.2047,26.03,62,69,0.9,CI,1701544492
chibougamau,49.9168,-74.3659,-10.21,92,20,0.0,CA,1701544492
melekeok village,7.4957,134.6367,27.31,89,75,3.09,PW,1701544492
dabou,5.3256,-4.3769,26.82,85,95,3.17,CI,1701544455
castlewood,39.5847,-104.9011,5.31,30,20,10.29,US,1701544493
lompoc,34.6391,-120.4579,19.88,48,0,5.14,US,1701544493
baruun-urt,46.6806,113.2792,-8.83,75,97,8.24,MN,1701544494
constantia,44.1833,28.65,13.38,81,100,5.67,RO,1701544460
cox's bazar,21.4532,91.9798,23.12,69,100,2.42,BD,1701544494
kingscliff,-28.2667,153.5667,21.89,83,18,3.09,AU,1701544494
horta,38.5333,-28.6333,15.8,62,40,5.81,PT,1701544495
birzebbuga,35.8258,14.5269,18.42,68,0,6.69,MT,1701544495
weno,7.4515,151.8468,28.77,73,67,7.98,FM,1701544496
kavaratti,10.5669,72.642,28.71,73,11,3.94,IN,1701544496
malindi,-3.2175,40.1191,26.93,84,80,5.35,KE,1701544496
champerico,14.3,-91.9167,35.3,64,0,3.84,GT,1701544496
misratah,32.3754,15.0925,21.96,34,100,3.09,LY,1701544497
nassau,40.7507,-73.5829,15.82,82,0,4.12,US,1701544241
george town,5.4112,100.3354,26.12,83,20,1.54,MY,1701544359
fortaleza,-3.7227,-38.5247,29.48,55,20,6.69,BR,1701544496
namtsy,62.7161,129.6658,-37.0,100,100,1.41,RU,1701544498
kavieng,-2.5744,150.7967,27.61,77,100,3.05,PG,1701544498
chegdomyn,51.1167,133.0167,-21.01,99,64,0.9,RU,1701544498
sarykemer,43.0,71.5,4.71,30,3,2.87,KZ,1701544499
labytnangi,66.6572,66.4183,-15.17,93,100,6.47,RU,1701544499
xiongzhou,25.1167,114.3,10.41,76,100,1.39,CN,1701544500
san andres,12.5847,-81.7006,31.01,70,20,5.14,CO,1701544381
ramanuj ganj,23.8,83.7,17.43,82,43,1.23,IN,1701544500
loandjili,-4.7561,11.8578,26.35,81,90,2.55,CG,1701544500
akureyri,65.6835,-18.0878,-4.04,86,75,1.54,IS,1701544501
ghat,24.9647,10.1728,22.44,13,99,4.22,LY,1701544502
sao joao da barra,-21.6403,-41.0511,29.05,87,1,6.04,BR,1701544503
tsiombe,-25.3,45.4833,21.34,61,88,6.99,MG,1701544503
machico,32.7,-16.7667,18.17,76,20,2.06,PT,1701544503
byron bay,-28.65,153.6167,20.39,94,30,3.6,AU,1701544504
kingston,17.997,-76.7936,30.69,64,20,11.32,JM,1701544505
fort mcmurray,56.7268,-111.381,-6.27,79,100,1.54,CA,1701544505
nahiyat al fuhud,30.9697,46.7228,17.78,37,0,3.79,IQ,1701544505
pahlgam,34.0333,75.3333,-1.39,44,100,4.38,IN,1701544506
santa ponsa,39.5087,2.4766,15.56,55,0,9.55,ES,1701544506
san luis de la loma,17.2706,-100.8939,30.24,55,42,2.43,MX,1701544507
minbu,20.1833,94.8833,22.3,71,100,1.36,MM,1701544507
mogocha,53.7333,119.7667,-19.94,99,97,0.92,RU,1701544507
chifeng,42.2683,118.9636,-6.44,53,0,2.69,CN,1701544508
guadalajara,20.6667,-103.3333,22.87,33,75,1.54,MX,1701544507
brookings,44.3114,-96.7984,4.14,59,0,7.72,US,1701544228
eraan,9.0629,117.7016,26.13,88,95,1.99,PH,1701544509
tejen,37.3834,60.5054,12.96,49,0,4.23,TM,1701544509
hirara,24.8,125.2833,21.15,73,100,6.17,JP,1701544510
mafinga,-7.25,35.0667,26.18,52,97,3.2,TZ,1701544510
talara,-4.5772,-81.2719,28.42,57,0,3.6,PE,1701544510
aripuana,-9.1667,-60.6333,35.41,36,98,1.17,BR,1701544511
tefe,-3.3542,-64.7114,34.06,55,40,2.06,BR,1701544511
nova olinda do norte,-3.8881,-59.0942,33.99,45,100,1.14,BR,1701544512
male,4.1748,73.5089,27.97,89,75,2.57,MV,1701544512
berezovo,63.9381,65.0419,-14.16,93,100,4.43,RU,1701544512
nova vicosa,-17.8919,-39.3719,28.17,66,3,7.52,BR,1701544513
siparia,10.1333,-61.5,31.01,78,10,5.35,TT,1701544513
rogovskaya,45.7312,38.7396,14.04,69,87,6.39,RU,1701544514
luau,-10.7073,22.2247,18.17,97,96,0.79,AO,1701544514
iaciara,-14.0958,-46.6317,34.83,28,64,3.23,BR,1701544514
ambam,2.3833,11.2833,20.94,98,100,0.97,CM,1701544515
mapleton,40.1302,-111.5785,3.69,84,100,2.57,US,1701544515
berbera,10.4396,45.0143,26.93,63,100,3.56,SO,1701544516
bubaque,11.2833,-15.8333,28.03,67,100,5.8,GW,1701544516
keflavik,64.0049,-22.5624,-2.76,86,0,2.57,IS,1701544517
ataq,14.5377,46.8319,18.16,26,4,0.77,YE,1701544517
baume-les-dames,47.353,6.3612,-1.23,95,100,0.82,FR,1701544518
hunchun,42.8675,130.3581,-7.25,72,7,4.56,CN,1701544518
urzhar,47.093,81.6294,2.89,60,100,1.17,KZ,1701544519
purbalingga,-7.3881,109.3639,24.4,92,100,0.79,ID,1701544519
qamdo,31.1667,97.2333,-6.36,54,44,1.8,CN,1701544520
bol,13.4586,14.7147,26.66,43,52,4.33,TD,1701544520
ingeniero jacobacci,-41.3427,-69.5448,11.14,20,100,10.14,AR,1701544520
bengkulu,-3.8004,102.2655,24.39,93,100,1.77,ID,1701544521
victorica,-36.2151,-65.4359,21.94,20,98,7.26,AR,1701544521
siwa oasis,29.2041,25.5195,17.27,55,44,1.78,EG,1701544521
armacao de buzios,-22.7469,-41.8817,30.09,82,6,4.14,BR,1701544522
manaure,11.7751,-72.4445,30.78,55,17,10.47,CO,1701544522
yeppoon,-23.1333,150.7333,24.88,87,100,0.46,AU,1701544523
bloemfontein,-29.1211,26.214,23.71,35,6,2.06,ZA,1701544524
sitka,57.0531,-135.33,3.94,70,40,0.0,US,1701544524
mianke mor,31.2,73.95,16.99,47,0,0.73,PK,1701544524
nyurba,63.2842,118.3319,-42.74,100,94,0.35,RU,1701544525
suyan,6.0603,125.3853,24.62,90,56,1.99,PH,1701544525
hammerfest,70.6634,23.6821,-7.75,62,29,2.06,NO,1701544526
lesnoy,57.6198,63.0784,-9.77,94,100,6.06,RU,1701544526
mount pearl,47.5166,-52.7813,4.14,93,100,2.57,CA,1701544526
umunede,6.2637,6.3116,26.72,62,90,2.13,NG,1701544527
baoqing,46.3317,132.2111,-19.48,98,21,2.1,CN,1701544527
jayapura,-2.5333,140.7,23.66,89,100,1.9,ID,1701544527
lakatoro,-16.0999,167.4164,26.63,82,100,4.09,VU,1701544528
boende,-0.2167,20.8667,22.5,96,99,0.68,CD,1701544528
wharton,29.3116,-96.1027,18.85,88,100,3.4,US,1701544528
san patricio,28.017,-97.5169,22.17,62,100,5.85,US,1701544529
novoarkhanhel's'k,48.658,30.8182,3.45,99,100,3.89,UA,1701544530
strezhevoy,60.7333,77.5889,-17.24,98,97,0.89,RU,1701544530
manthani,18.65,79.6667,22.46,58,95,1.18,IN,1701544391
vernon,50.2581,-119.2691,1.45,86,87,0.51,CA,1701544531
tabou,4.423,-7.3528,26.98,84,65,3.51,CI,1701544531
lodwar,3.1191,35.5973,31.72,34,57,5.88,KE,1701544531
orsa,54.5153,30.4053,-10.41,98,100,1.46,BY,1701544532
kalmunai,7.4167,81.8167,25.23,85,100,2.16,LK,1701544532
jieshou,33.2634,115.3611,4.04,48,8,2.06,CN,1701544533
aioun,16.6614,-9.6149,30.16,12,100,4.35,MR,1701544533
burnie,-41.0667,145.9167,14.69,91,100,2.16,AU,1701544534
severnoye,56.3491,78.3619,-9.45,96,86,3.13,RU,1701544534
ulsteinvik,62.3432,5.8487,0.97,74,99,3.13,NO,1701544534
laredo,27.5064,-99.5075,21.16,60,0,3.6,US,1701544488
tashtagol,52.7657,87.8894,-0.27,96,100,4.02,RU,1701544535
budva,42.2864,18.84,17.97,75,100,4.63,ME,1701544535
poronaysk,49.2167,143.1167,-11.7,88,44,2.03,RU,1701544536
blankenhain,50.8599,11.3439,-3.27,96,95,2.35,DE,1701544536
butte,39.6499,-121.5677,11.12,90,100,5.66,US,1701544537
gumla,23.05,84.55,17.72,71,100,1.63,IN,1701544537
